{
  "city": "Gwalior",
  "places": [
    {
      "name": "Gwalior Fort",
      "lat": 26.2313245,
      "lng": 78.1694957,
      "category": "Cultural & Heritage Sites",
      "rating": 4.5,
      "ticket_price": 75.0
    },
    {
      "name": "Jai Vilas Palace",
      "lat": 26.2042028,
      "lng": 78.1684674,
      "category": "Cultural & Heritage Sites",
      "rating": 4.3,
      "ticket_price": 150.0
    },
    {
      "name": "Teli ka Mandir",
      "lat": 26.2203984,
      "lng": 78.1656988,
      "category": "Religious & Spiritual Pilgrimages, Cultural & Heritage Sites",
      "rating": 4.3,
      "ticket_price": 0.0
    },
    {
      "name": "Sas Bahu Temple",
      "lat": 24.7351945,
      "lng": 73.7162806,
      "category": "Religious & Spiritual Pilgrimages, Cultural & Heritage Sites",
      "rating": 4.5,
      "ticket_price": 0.0
    },
    {
      "name": "Gopachal Parvat jain temple",
      "lat": 26.214536,
      "lng": 78.168605,
      "category": "Religious & Spiritual Pilgrimages, Cultural & Heritage Sites",
      "rating": 4.6,
      "ticket_price": 0.0
    },
    {
      "name": "National Chambal Ghariyal Wildlife Sanctuary",
      "lat": 26.7659469,
      "lng": 78.6448794,
      "category": "Natural Landscapes & Wildlife",
      "rating": 4.3,
      "ticket_price": 1800.0
    },
    {
      "name": "Pagara Dam",
      "lat": 26.2597748,
      "lng": 77.8581672,
      "category": "Sightseeing & Exploration",
      "rating": 3.9,
      "ticket_price": 0.0
    },
    {
      "name": "Sarafa Bazar",
      "lat": 22.7175144,
      "lng": 75.852306,
      "category": "Shopping & Markets",
      "rating": 4.0,
      "ticket_price": 0.0
    },
    {
      "name": "Dindayal mall",
      "lat": 26.2094362,
      "lng": 78.16624,
      "category": "Shopping & Markets",
      "rating": 4.1,
      "ticket_price": 0.0
    },
    {
      "name": "Patankar bazaar",
      "lat": 26.2024846,
      "lng": 78.157517,
      "category": "Shopping & Markets",
      "rating": 4.0,
      "ticket_price": 0.0
    }
  ]
}