{
  "city": "Lucknow",
  "places": [
    {
      "name": "Bara Imambara",
      "lat": 26.8685168,
      "lng": 80.9127127,
      "category": "\tCultural & Heritage Sites",
      "rating": 4.4,
      "ticket_price": 50.0
    },
    {
      "name": "Chhota Imambara",
      "lat": 26.8742913,
      "lng": 80.9046688,
      "category": "\tCultural & Heritage Sites",
      "rating": 4.8,
      "ticket_price": 30.0
    },
    {
      "name": "Hazratganj market",
      "lat": 26.8541536,
      "lng": 80.9447827,
      "category": "Shopping & Markets",
      "rating": 4.9,
      "ticket_price": 0.0
    },
    {
      "name": "British Residency",
      "lat": 26.8606372,
      "lng": 80.9267863,
      "category": "Cultural & Heritage Sites",
      "rating": 4.5,
      "ticket_price": 0.0
    },
    {
      "name": "Marine Drive",
      "lat": 18.9432111,
      "lng": 72.8229983,
      "category": "Sightseeing & Exploration",
      "rating": 4.3,
      "ticket_price": 0.0
    },
    {
      "name": "Chowk market",
      "lat": 26.8658585,
      "lng": 80.9112496,
      "category": "Shopping & Markets",
      "rating": 4.3,
      "ticket_price": 0.0
    },
    {
      "name": "Phoenix United mall",
      "lat": 26.798631,
      "lng": 80.8969707,
      "category": "Shopping & Markets",
      "rating": 4.3,
      "ticket_price": 0.0
    }
  ]
}