{
  "city": "Satara",
  "places": [
    {
      "name": "Kaas Plateau",
      "lat": 17.7208314,
      "lng": 73.8237159,
      "category": "Natural Landscapes & Wildlife",
      "rating": 4.4,
      "ticket_price": 300.0
    },
    {
      "name": "Vasota Fort Jungle trekking and Camping",
      "lat": 17.7338451,
      "lng": 73.7590369,
      "category": "Adventure & Outdoor Activities",
      "rating": 4.7,
      "ticket_price": 1200.0
    },
    {
      "name": "Lodwick Point",
      "lat": 17.9394677,
      "lng": 73.6347687,
      "category": "Sightseeing & Exploration",
      "rating": 4.4,
      "ticket_price": 0.0
    },
    {
      "name": "Thoseghar Waterfall",
      "lat": 17.5980965,
      "lng": 73.8481534,
      "category": "Natural Landscapes & Wildlife",
      "rating": 4.5,
      "ticket_price": 0.0
    },
    {
      "name": "Ajinkyatara Fort",
      "lat": 17.6723432,
      "lng": 73.9904721,
      "category": "Cultural & Heritage Sites",
      "rating": 4.5,
      "ticket_price": 0.0
    },
    {
      "name": "Uttar Chidambaram Nataraj mandir",
      "lat": 17.6852,
      "lng": 74.0254,
      "category": "Religious & Spiritual Pilgrimages",
      "rating": 4.6,
      "ticket_price": 0.0
    },
    {
      "name": "Sajjangad Fort",
      "lat": 17.6485126,
      "lng": 73.9157886,
      "category": "Cultural & Heritage Sites",
      "rating": 4.6,
      "ticket_price": 10.0
    },
    {
      "name": "Pratapgad Fort",
      "lat": 17.9372875,
      "lng": 73.5783932,
      "category": "Cultural & Heritage Sites",
      "rating": 4.5,
      "ticket_price": 0.0
    }
  ]
}